,City Name,Latitude,Longitude,Maximum Temperature,Humidity,Cloudiness,Wind Speed,Country,Date
0,chara,56.91,118.26,57.49,66,100,5.19,RU,1595299548
1,ayan,56.45,138.17,52.38,94,100,15.39,RU,1595299548
2,tiznit,29.58,-9.5,71.1,52,1,1.77,MA,1595299549
3,hithadhoo,-0.6,73.08,84.02,77,100,11.52,MV,1595299549
4,loandjili,-4.76,11.86,71.33,89,39,2.55,CG,1595299549
6,aklavik,68.22,-135.01,48.2,70,75,5.82,CA,1595299326
7,candido mendes,-1.45,-45.72,72.5,92,2,1.41,BR,1595299549
8,swan hill,-35.34,143.55,56.66,52,47,7.65,AU,1595299549
9,guano,-1.58,-78.63,46.72,84,83,2.71,EC,1595299549
10,albany,42.6,-73.97,78.01,87,3,4.76,US,1595299549
11,tombouctou,20,-3,96.1,26,36,2.86,ML,1595299550
12,dudinka,69.41,86.18,51.8,100,75,8.95,RU,1595299550
13,mar del plata,-38,-57.56,51.01,100,90,23.04,AR,1595299550
14,rikitea,-23.12,-134.97,67.21,72,88,18.63,PF,1595299550
15,lebu,-37.62,-73.65,50.63,84,100,12.39,CL,1595299550
16,iqaluit,63.75,-68.51,42.8,100,90,2.73,CA,1595299550
17,cidreira,-30.18,-50.21,65.35,82,55,5.03,BR,1595299551
18,castro,-24.79,-50.01,54.79,80,9,3.96,BR,1595299551
19,arraial do cabo,-22.97,-42.03,70.45,84,0,18.14,BR,1595299551
20,kommunisticheskiy,61.68,64.48,63.52,57,0,4.12,RU,1595299551
21,berezovyy,51.67,135.7,63,93,100,3.4,RU,1595299551
22,bluff,-46.6,168.33,52.02,77,97,6.38,NZ,1595299551
23,ola,59.58,151.28,64.42,61,2,6.73,RU,1595299463
24,padang,-0.95,100.35,86,70,20,3.36,ID,1595299551
25,tangua,-22.73,-42.71,71.6,88,0,2.24,BR,1595299551
26,camacha,33.08,-16.33,69.8,73,40,14.99,PT,1595299551
27,klyuchi,52.27,79.17,73.8,69,61,12.12,RU,1595299551
28,lodja,-3.48,23.43,68.4,50,0,1.32,CD,1595299552
29,vila velha,-20.33,-40.29,68,94,40,3.36,BR,1595299552
30,araouane,18.9,-3.53,95.68,28,73,13.8,ML,1595299552
31,sao filipe,14.9,-24.5,75.85,83,45,9.8,CV,1595299552
32,hermanus,-34.42,19.23,56.88,67,3,6.78,ZA,1595299552
34,ferrol,43.48,-8.24,64.99,82,90,6.93,ES,1595299552
35,lavrentiya,65.58,-171,46.83,77,100,4.83,RU,1595299553
36,san jeronimo,-11.95,-75.28,46.49,62,0,1.41,PE,1595299553
37,saint-philippe,-21.36,55.77,66.2,63,90,6.93,RE,1595299553
38,markova,48.68,24.41,57.61,88,72,5.68,UA,1595299553
39,tuatapere,-46.13,167.68,51.28,74,75,7.49,NZ,1595299553
41,oyama,36.3,139.8,82,78,75,3.36,JP,1595299553
43,port alfred,-33.59,26.89,57.67,68,0,3.6,ZA,1595299553
44,cape town,-33.93,18.42,51.8,81,0,10.29,ZA,1595299362
45,husavik,66.04,-17.34,41,100,20,1.12,IS,1595299553
46,busselton,-33.65,115.33,63,46,100,18.63,AU,1595299554
47,hilo,19.73,-155.09,84.2,58,40,10.29,US,1595298881
48,dikson,73.51,80.55,39.79,95,100,12.75,RU,1595299554
49,upernavik,72.79,-56.15,46.99,57,54,7.07,GL,1595299554
50,buckeye,33.37,-112.58,102.2,22,1,9.93,US,1595299382
53,makuyuni,-4.73,38.1,62.33,84,69,4.07,TZ,1595299554
54,barrow,71.29,-156.79,33.8,86,90,5.82,US,1595299554
56,pontianak,-0.03,109.33,87.75,63,3,2.26,ID,1595299554
57,qaanaaq,77.48,-69.36,45.93,70,51,1.32,GL,1595299554
58,ushuaia,-54.8,-68.3,28.4,100,0,5.82,AR,1595299341
59,coihaique,-45.58,-72.07,33.8,87,90,4.7,CL,1595299555
61,hobart,-42.88,147.33,57.2,54,75,10.29,AU,1595299327
62,puerto baquerizo moreno,-0.9,-89.6,68.41,83,99,14.58,EC,1595299555
63,jackson,42.42,-122.83,98.6,22,1,13.87,US,1595299555
64,jalu,29.03,21.55,73.24,60,0,9.04,LY,1595299555
65,ust-ilimsk,58,102.66,72.01,34,0,0.85,RU,1595299555
66,kem,64.96,34.58,61.88,67,55,5.44,RU,1595299555
67,torbay,47.67,-52.73,64.99,93,90,23.04,CA,1595299420
68,souillac,-20.52,57.52,69.8,56,75,11.41,MU,1595299556
69,richmond,37.55,-77.46,90,70,40,8.05,US,1595299492
71,rehoboth,-23.32,17.08,45.52,54,0,7.09,NA,1595299556
72,tasiilaq,65.61,-37.64,42.8,87,96,5.82,GL,1595299556
73,clyde river,70.47,-68.59,42.8,100,90,10.29,CA,1595299556
74,paracuru,-3.41,-39.03,73,85,95,7,BR,1595299556
75,santa cruz,-17.8,-63.17,75.2,78,40,8.05,BO,1595299546
76,vaini,-21.2,-175.2,75.2,60,20,9.17,TO,1595299556
77,mandalgovi,45.76,106.27,78.3,27,0,10.56,MN,1595299556
78,sarakhs,36.54,61.16,78.8,31,0,4.7,IR,1595299557
79,havoysund,71,24.66,51.8,100,100,18.34,NO,1595299557
80,hun,29.13,15.95,69.26,78,0,4.72,LY,1595299557
81,loa janan,-0.58,117.09,83.84,81,70,2.55,ID,1595299557
82,chuy,-33.7,-53.46,66,86,97,6.93,UY,1595299557
84,komsomolskiy,40.43,71.72,80.6,32,0,2.24,UZ,1595299557
85,garden city,42.33,-83.33,79,64,75,5.82,US,1595299558
86,novosheshminsk,55.07,51.23,63.07,86,0,5.08,RU,1595299558
87,jamestown,42.1,-79.24,69.8,68,1,6.93,US,1595299511
88,norman wells,65.28,-126.83,62.6,77,75,13.87,CA,1595299558
89,jizan,17.33,42.67,87.8,55,100,4.7,SA,1595299558
90,provideniya,64.38,-173.3,50,81,90,11.18,RU,1595299558
92,sayyan,15.17,44.32,59,79,100,1.48,YE,1595299559
93,new norfolk,-42.78,147.06,57,72,95,5.01,AU,1595299559
94,gladstone,-23.85,151.25,69.8,52,100,10.29,AU,1595299559
95,walvis bay,-22.96,14.51,64.4,22,0,4.7,NA,1595299559
96,polson,47.69,-114.16,78.01,51,46,2.17,US,1595299389
97,tessalit,20.2,1.01,85.51,38,34,12.21,ML,1595299559
98,mataura,-46.19,168.86,51.67,75,100,3.53,NZ,1595299559
99,fare,-16.7,-151.02,77.76,80,51,23.96,PF,1595299559
100,yellowknife,62.46,-114.35,72,56,40,10.29,CA,1595299484
101,bardiyah,31.76,25.09,72.54,87,0,14.81,LY,1595299559
102,thompson,55.74,-97.86,68,64,75,4.7,CA,1595299559
103,faanui,-16.48,-151.75,77.32,83,43,25.21,PF,1595299560
104,san vicente,-26.62,-54.13,61.25,81,29,4.21,AR,1595299560
105,kabin buri,13.95,101.72,85.3,71,100,3.09,TH,1595299560
106,punta arenas,-53.15,-70.92,30.2,92,4,9.17,CL,1595299560
107,laguna,38.42,-121.42,78.8,44,1,9.17,US,1595299560
108,praia da vitoria,38.73,-27.07,71.6,68,75,4.03,PT,1595299560
109,san patricio,19.22,-104.7,84.2,79,40,18.34,MX,1595299561
110,surt,31.21,16.59,75.52,79,14,9.82,LY,1595299561
111,tiksi,71.69,128.87,50.97,81,96,9.78,RU,1595299561
112,geraldton,-28.77,114.6,62.6,59,0,23.04,AU,1595299561
113,kayerkan,69.35,87.76,51.8,100,75,8.95,RU,1595299561
114,atuona,-9.8,-139.03,80.4,78,35,18.41,PF,1595299561
115,avarua,-21.21,-159.78,77,78,100,17.22,CK,1595299561
116,saskylakh,71.92,114.08,60.44,44,100,11.7,RU,1595299561
117,lompoc,34.64,-120.46,62.6,77,6,11.41,US,1595299532
118,touros,-5.2,-35.46,71.6,94,75,4.7,BR,1595299561
119,zhicheng,30.3,111.5,75.99,95,100,2.37,CN,1595299562
120,smithers,54.78,-127.17,60.8,93,90,4.7,CA,1595299501
121,bengkulu,-3.8,102.27,85.28,62,78,3.29,ID,1595299562
122,atasu,48.68,71.64,77.76,37,15,11.5,KZ,1595299266
123,bethel,41.37,-73.41,75,78,1,3.36,US,1595299562
124,ribeira grande,38.52,-28.7,68.86,69,16,1.48,PT,1595299562
126,riyadh,24.69,46.72,95,13,83,9.17,SA,1595299442
127,kastamonu,41.5,33.67,57.49,93,26,4.72,TR,1595299562
128,pachino,36.72,15.09,68,83,0,4.32,IT,1595299562
129,panchagarh,26.33,88.56,76.69,96,100,5.17,BD,1595299562
130,tezu,27.92,96.17,75.2,88,100,0.98,IN,1595299563
131,westport,41.14,-73.36,86,51,1,8.05,US,1595299346
132,saldanha,-33.01,17.94,42.8,81,0,3.36,ZA,1595299563
133,bahia honda,22.9,-83.16,78.26,82,48,6.85,CU,1595299563
134,deputatskiy,69.3,139.9,78.01,46,83,9.82,RU,1595299563
135,maragogi,-9.01,-35.22,73.44,77,70,12.41,BR,1595299563
136,oktyabrskoye,43.06,44.74,75.2,57,2,8.95,RU,1595299563
138,ghanzi,-21.57,21.78,45.46,54,0,8.14,BW,1595299563
139,mulanur,10.77,77.72,81.55,69,97,11.48,IN,1595299564
140,saint george,37.1,-113.58,100.4,12,1,14.99,US,1595299380
141,pevek,69.7,170.31,48.6,56,22,4.5,RU,1595299564
142,kodiak,57.79,-152.41,75.2,44,20,11.41,US,1595299564
143,ostrovnoy,68.05,39.51,64.38,56,0,6.64,RU,1595299564
144,shaunavon,49.65,-108.42,61.81,67,7,7.11,CA,1595299564
145,krasnoselkup,65.7,82.47,60.48,65,89,15.64,RU,1595299564
146,kapaa,22.08,-159.32,81,74,90,11.41,US,1595299489
147,tuktoyaktuk,69.45,-133.04,42.8,75,90,11.41,CA,1595299564
148,funtua,11.52,7.31,69.49,90,94,9.42,NG,1595299565
149,airai,-8.93,125.41,73.02,45,99,3.96,TL,1595299565
150,gat,31.61,34.76,77,66,1,1.83,IL,1595299565
151,agadez,19.75,10.25,86.05,22,76,5.79,NE,1595299565
152,miles city,46.41,-105.84,73.4,46,1,6.93,US,1595299565
153,cururupu,-1.83,-44.87,73.2,90,0,1.88,BR,1595299565
154,high rock,26.62,-78.28,83.7,75,71,16.78,BS,1595299565
155,keti bandar,24.14,67.45,86.81,74,86,22.79,PK,1595299565
156,richards bay,-28.78,32.04,55.24,70,0,4.83,ZA,1595299565
157,klaksvik,62.23,-6.59,48.2,93,11,5.44,FO,1595299565
160,ilulissat,69.22,-51.1,53.6,46,100,2.24,GL,1595299566
161,iquique,-20.22,-70.14,60.8,67,90,6.93,CL,1595299294
162,butaritari,3.07,172.79,82.98,66,79,2.64,KI,1595299566
163,vila franca do campo,37.72,-25.43,66.2,88,75,9.17,PT,1595299566
164,east london,-33.02,27.91,60.71,43,0,5.26,ZA,1595299566
165,xiangxiang,27.73,112.53,84.87,76,100,5.86,CN,1595299567
166,namibe,-15.2,12.15,65.66,58,0,3.91,AO,1595299567
167,khatanga,71.97,102.5,56.88,54,93,4.32,RU,1595299567
168,atar,20.52,-13.05,87.78,42,17,4.59,MR,1595299567
169,ico,-6.4,-38.86,75.25,66,100,7.65,BR,1595299567
170,antofagasta,-23.65,-70.4,57.2,76,90,5.82,CL,1595299567
171,rawson,-43.3,-65.1,44.55,80,99,15.77,AR,1595299525
172,almaznyy,48.04,40.05,68,64,28,8.95,RU,1595299567
173,carnarvon,-24.87,113.63,69.8,46,0,11.41,AU,1595299567
174,omsukchan,62.53,155.8,70.83,34,0,6.08,RU,1595299568
175,port hardy,50.7,-127.42,64.4,77,75,6.93,CA,1595299475
176,fairbanks,64.84,-147.72,69.8,56,75,10.67,US,1595299512
178,bambous virieux,-20.34,57.76,69.8,56,75,11.41,MU,1595299568
179,rio gallegos,-51.62,-69.22,17.6,85,3,3.36,AR,1595299568
180,goma,-1.68,29.22,62.24,73,53,0.98,CD,1595299569
181,acapulco,16.86,-99.89,84.2,83,75,5.82,MX,1595299308
182,mareeba,-17,145.43,73.4,73,75,8.05,AU,1595299361
183,shimoda,34.67,138.95,77,88,75,9.17,JP,1595299569
184,georgetown,5.41,100.34,87.8,83,20,4.7,MY,1595299569
185,pangnirtung,66.15,-65.71,52.29,67,90,2.84,CA,1595299569
187,sao jose da coroa grande,-8.9,-35.15,73.81,77,77,12.37,BR,1595299569
188,rania,29.53,74.83,81.45,76,100,8.99,IN,1595299569
189,victoria,22.29,114.16,93,62,26,8.99,HK,1595299503
190,lagoa,39.05,-27.98,68.4,70,0,2.84,PT,1595299570
191,puerto ayora,-0.74,-90.35,70,86,99,5.99,EC,1595299570
192,bredasdorp,-34.53,20.04,55.4,93,28,2.24,ZA,1595299570
193,reyes,-14.32,-67.38,73.78,73,75,1.14,BO,1595299570
194,los llanos de aridane,28.66,-17.92,71.6,73,40,19.46,ES,1595299570
195,igrim,63.19,64.42,64.78,58,8,0.92,RU,1595299570
196,kaitangata,-46.28,169.85,55.99,52,13,1.99,NZ,1595299570
197,berndorf,47.95,16.11,62.01,89,0,1.99,AT,1595299570
198,setermoen,68.86,18.35,51.8,93,90,11.41,NO,1595299570
199,mount gambier,-37.83,140.77,53.6,76,90,8.05,AU,1595299570
200,kununurra,-15.77,128.73,80.6,15,50,11.41,AU,1595299571
201,sunrise manor,36.21,-115.07,104,11,1,3.36,US,1595299561
202,portland,45.52,-122.68,90,46,0,8.08,US,1595299232
204,sitka,57.05,-135.33,57.2,87,90,3.47,US,1595299571
205,tautira,-17.73,-149.15,82.4,65,20,5.82,PF,1595299571
206,oranjemund,-28.55,16.43,60.21,42,0,0.96,NA,1595299571
208,pathein,16.78,94.73,84.27,77,100,4.18,MM,1595299571
209,harper,4.38,-7.72,75.34,90,37,8.34,LR,1595299571
210,athabasca,54.72,-113.29,65.01,76,100,0.76,CA,1595299571
211,jieshou,33.26,115.36,82.02,76,100,9.35,CN,1595299571
212,te anau,-45.42,167.72,45.72,86,93,7.2,NZ,1595299572
213,matadi,-5.82,13.45,71.19,79,68,4.83,CD,1595299572
214,nabire,-3.37,135.48,86.81,61,54,5.53,ID,1595299572
215,sioux lookout,50.1,-91.92,64.4,59,75,2.24,CA,1595299572
216,caravelas,-17.71,-39.25,69.51,88,0,6.26,BR,1595299572
217,suksun,57.14,57.39,59.85,90,100,13.22,RU,1595299572
218,sibolga,1.74,98.78,86.36,59,89,2.35,ID,1595299572
219,nouadhibou,20.93,-17.03,73.4,83,34,3.36,MR,1595299572
220,tual,-5.67,132.75,79.41,85,100,19.46,ID,1595299572
221,belaya gora,68.53,146.42,87.35,27,27,8.79,RU,1595299573
222,poum,-20.23,164.02,71.37,63,60,14.76,NC,1595299573
224,tazovskiy,67.47,78.7,51.8,78,100,11.99,RU,1595299573
225,preobrazheniye,42.9,133.91,74.08,77,100,3.36,RU,1595299574
227,merauke,-8.47,140.33,80.4,76,69,12.59,ID,1595299574
228,ancud,-41.87,-73.82,48,100,90,2.24,CL,1595299574
229,mogadishu,2.04,45.34,76.62,82,100,21.16,SO,1595299574
230,lexington park,38.27,-76.45,89.6,70,75,6.26,US,1595299574
231,swinoujscie,53.91,14.25,53.01,87,52,2.24,PL,1595299574
232,san lorenzo,-25.33,-57.53,75.2,57,77,6.93,PY,1595299574
233,pochutla,15.74,-96.47,82,83,98,2.95,MX,1595299574
234,gazojak,41.19,61.4,89.08,17,0,18.48,TM,1595299575
235,meadow lake,34.8,-106.54,86,19,75,17.22,US,1595299575
236,berlevag,70.86,29.09,59.04,79,100,7.14,NO,1595299575
238,constitucion,-35.33,-72.42,52.14,87,99,12.73,CL,1595299575
239,ucluelet,48.93,-125.55,62.01,80,0,1.01,CA,1595299575
240,atlantic beach,30.33,-81.4,84.2,74,20,6.93,US,1595299575
241,saint-francois,46.42,3.91,64.4,72,77,4.7,FR,1595299575
242,port elizabeth,-33.92,25.57,53.6,100,75,4.7,ZA,1595299575
243,bozeman,45.68,-111.04,78.8,34,1,3.36,US,1595299344
244,roald,62.58,6.13,50,81,100,11.41,NO,1595299576
246,chicama,-7.84,-79.15,60.57,86,18,4.43,PE,1595299576
247,ewa beach,21.32,-158.01,87.8,48,20,8.05,US,1595299576
248,cairns,-16.92,145.77,73.4,73,75,8.05,AU,1595299463
249,brodokalmak,55.57,62.08,62.6,93,40,6.71,RU,1595299576
250,avera,33.19,-82.53,80.6,65,1,3.36,US,1595299576
252,russell,32.35,-85.2,80.6,83,75,6.93,US,1595299576
253,talnakh,69.49,88.4,51.8,100,75,8.95,RU,1595299576
254,correntina,-13.34,-44.64,64.67,70,20,3.94,BR,1595299576
256,grand gaube,-20.01,57.66,69.01,61,71,3,MU,1595299576
257,kulhudhuffushi,6.62,73.07,82.18,79,100,17.92,MV,1595299577
258,coolum beach,-26.53,153.1,68,63,100,8.01,AU,1595299577
259,shillong,25.57,91.88,82.4,100,75,3.74,IN,1595299577
260,college,64.86,-147.8,69.8,52,75,4.7,US,1595299577
261,takoradi,4.88,-1.76,74.66,93,91,5.46,GH,1595299577
262,amapa,1,-52,70.25,97,2,1.68,BR,1595299577
263,burnie,-41.07,145.92,55.99,60,55,11.01,AU,1595299577
264,gurupi,-11.73,-49.07,69.82,46,39,4.05,BR,1595299578
265,rocha,-34.48,-54.33,64.42,88,100,6.53,UY,1595299578
266,umm kaddadah,13.6,26.69,79.66,63,24,8.46,SD,1595299578
267,longyearbyen,78.22,15.64,48.2,81,40,6.93,SJ,1595299299
268,mount isa,-20.73,139.5,75.2,23,92,11.41,AU,1595299578
269,lerwick,60.15,-1.15,51.8,81,95,9.17,GB,1595299578
270,cockburn town,21.46,-71.14,83.1,78,62,22.24,TC,1595299578
271,yinchuan,38.47,106.27,83.8,34,100,11.79,CN,1595299578
272,kikwit,-5.04,18.82,69.37,33,11,1.92,CD,1595299578
273,parintins,-2.63,-56.74,75.81,73,21,2.28,BR,1595299579
275,ponta do sol,32.67,-17.1,68,82,40,17.22,PT,1595299579
276,port hedland,-20.32,118.57,80.6,21,0,16.11,AU,1595299579
278,sobolevo,54.43,31.9,56.19,93,62,5.55,RU,1595299579
279,broome,42.25,-75.83,73.4,56,1,4.7,US,1595299579
280,ust-kuyga,70.02,135.6,86.68,39,98,8.1,RU,1595299579
281,huarmey,-10.07,-78.15,59.88,87,10,7.34,PE,1595299579
282,kobryn,52.21,24.36,62.06,89,100,3.83,BY,1595299579
283,puerto escondido,15.85,-97.07,81.95,81,100,6.96,MX,1595299580
284,pisco,-13.7,-76.22,57.2,87,0,2.24,PE,1595299580
285,moscow,55.75,37.62,61,100,97,4.47,RU,1595299372
286,madang,-5.22,145.8,85.98,66,9,6.26,PG,1595299580
287,hammerfest,70.66,23.68,51.8,100,100,18.34,NO,1595299417
288,kargasok,59.06,80.86,65.05,60,46,15.43,RU,1595299580
289,arauca,7.08,-70.76,72.5,94,100,2.08,CO,1595299580
290,bundaberg,-24.85,152.35,71.6,46,100,20.8,AU,1595299531
291,tolaga bay,-38.37,178.3,61.12,75,24,11.1,NZ,1595299580
292,sur,22.57,59.53,87.37,64,99,8.75,OM,1595299581
293,payson,40.04,-111.73,87.8,18,1,14.99,US,1595299581
294,karratha,-20.74,116.85,73.98,38,0,16.17,AU,1595299581
295,naze,28.37,129.48,86,79,75,5.82,JP,1595299581
296,flinders,-34.58,150.86,63,50,10,8.99,AU,1595299581
298,adrar,20.5,-10.07,92.61,25,51,8.1,MR,1595299581
299,palmerston north,-40.35,175.62,53.01,99,100,4.56,NZ,1595299581
300,penzance,50.12,-5.54,55,81,0,10.29,GB,1595299581
301,port shepstone,-30.74,30.45,61.45,30,0,6.04,ZA,1595299582
302,tura,25.52,90.22,74.89,99,100,5.39,IN,1595299582
303,progreso,21.28,-89.67,82,86,45,9.55,MX,1595299582
304,mamakan,57.82,114,54.32,85,100,4.29,RU,1595299582
305,asau,46.43,26.4,55.99,98,1,5.28,RO,1595299582
306,general roca,-39.03,-67.58,46.4,93,90,6.93,AR,1595299582
307,tymovskoye,50.85,142.66,68.22,69,100,8.57,RU,1595299582
308,saint-louis,16.33,-15,81.9,63,100,12.97,SN,1595299582
309,yar-sale,66.83,70.83,57.74,76,100,7.49,RU,1595299582
310,lufilufi,-13.87,-171.6,82.74,68,61,5.14,WS,1595299582
311,itarema,-2.92,-39.92,75.92,85,78,12.12,BR,1595299582
312,banda aceh,5.56,95.32,83.88,70,100,0.22,ID,1595299583
313,sao joao da barra,-21.64,-41.05,70.61,89,0,9.93,BR,1595299583
314,camargo,27.67,-105.17,85.82,31,79,14.83,MX,1595299583
315,makokou,0.57,12.86,67.77,96,100,2.53,GA,1595299583
316,raudeberg,61.99,5.14,50,87,100,4.7,NO,1595299583
317,awjilah,29.11,21.29,72.75,60,0,9.42,LY,1595299583
318,taoudenni,22.68,-3.98,94.26,27,9,6.49,ML,1595299583
319,digal,6.75,124.8,87.82,66,45,0.94,PH,1595299583
320,khasan,42.43,130.64,79.47,56,0,7.94,RU,1595299583
321,baykit,61.67,96.37,70.39,41,0,2.13,RU,1595299583
322,koster,-25.86,26.9,42.28,56,0,5.5,ZA,1595299583
323,kontagora,10.4,5.47,71.33,95,72,3.56,NG,1595299584
324,khalki,39.57,22.53,73.99,60,20,0.76,GR,1595299584
325,sztum,53.92,19.03,57,88,76,3,PL,1595299584
326,kloulklubed,7.04,134.26,89.6,62,75,8.05,PW,1595299584
327,buston,40.52,69.33,82.4,39,20,8.95,TJ,1595299584
328,murgab,37.5,61.97,80.6,32,0,4.7,TM,1595299584
329,ust-koksa,50.27,85.61,70.23,62,99,0.22,RU,1595299584
331,alugan,12.22,125.48,85.91,71,100,4.54,PH,1595299584
332,highland springs,37.55,-77.33,84.2,70,40,8.05,US,1595299584
333,namatanai,-3.67,152.43,85.17,69,16,6.53,PG,1595299470
335,evensk,61.95,159.23,68.79,40,0,11.25,RU,1595299585
336,trabzon,40.92,39.83,78.8,78,75,4.7,TR,1595299483
337,krasnoturinsk,59.77,60.21,57.7,69,62,5.68,RU,1595299585
338,mahebourg,-20.41,57.7,69.8,56,75,11.41,MU,1595299585
339,vidim,56.41,103.11,66.43,38,91,3.04,RU,1595299585
340,nelson bay,-32.72,152.15,62.01,59,20,12.75,AU,1595299585
341,kruisfontein,-34,24.73,52.52,94,0,5.26,ZA,1595299585
342,price,39.6,-110.81,89.6,13,1,11.41,US,1595299585
343,bandarbeyla,9.49,50.81,79.68,58,93,28.03,SO,1595299585
344,henties bay,-22.12,14.28,64,53,0,1.01,NA,1595299585
345,sahuaripa,29.05,-109.23,87.44,47,17,1.05,MX,1595299585
346,hasaki,35.73,140.83,84,88,75,3.36,JP,1595299586
347,altay,47.87,88.12,70.95,51,100,3.02,CN,1595299586
348,brindisi,40.58,17.67,72,73,0,9.17,IT,1595299586
349,nanakuli,21.39,-158.15,87.8,48,20,8.05,US,1595299586
350,pujili,-0.95,-78.68,48.72,78,84,6.78,EC,1595299586
351,nikolskoye,59.7,30.79,60.8,87,99,4.47,RU,1595299586
352,luderitz,-26.65,15.16,62.6,34,0,8.05,NA,1595299586
353,mao,39.89,4.27,71.6,88,0,5.82,ES,1595299586
354,miandoab,36.97,46.1,84.2,30,75,11.41,IR,1595299586
355,neryungri,56.67,124.65,67.78,43,0,15.12,RU,1595299586
356,yumen,40.28,97.2,82.8,22,100,17.54,CN,1595299587
357,northam,51.03,-4.22,53.01,81,0,1.99,GB,1595299587
358,sovetskiy,61.36,63.58,63.07,56,0,5.37,RU,1595299587
359,san cristobal,7.77,-72.22,66.13,86,100,3.58,VE,1595299587
360,road town,18.42,-64.62,82.99,87,2,1.99,VG,1595299587
361,montevideo,-34.83,-56.17,60.8,93,100,2.24,UY,1595299458
362,port blair,11.67,92.75,84.36,69,100,4.23,IN,1595299588
363,salobrena,36.74,-3.59,78.01,78,94,8.79,ES,1595299588
364,bongouanou,6.65,-4.2,69.8,99,71,2.71,CI,1595299588
365,alice springs,-23.7,133.88,55.4,66,75,14.99,AU,1595299414
366,kurilsk,45.23,147.88,61.41,82,100,0.6,RU,1595299589
367,margate,51.38,1.39,60.01,95,0,5.77,GB,1595299589
368,igarka,67.47,86.58,55.4,70,69,7.31,RU,1595299589
369,labytnangi,66.66,66.42,63.66,60,79,7.49,RU,1595299589
370,kaitong,44.81,123.15,83.43,24,3,9.55,CN,1595299589
371,saint-pierre,-21.34,55.48,64.4,63,90,6.93,RE,1595299589
372,bontang,0.13,117.5,82.33,78,100,2.39,ID,1595299589
373,huilong,31.81,121.66,91.99,72,100,5.57,CN,1595299590
374,mayo,38.89,-76.51,81,74,1,3.36,US,1595299590
375,ambilobe,-13.2,49.05,62.15,75,37,3.44,MG,1595299590
376,elizabeth city,36.29,-76.25,84.99,74,85,1.01,US,1595299590
377,esperance,-33.87,121.9,53.6,66,100,17.22,AU,1595299590
378,general pico,-35.66,-63.76,54.68,83,100,8.5,AR,1595299590
379,korla,41.76,86.15,73,72,97,1.63,CN,1595299590
380,kavieng,-2.57,150.8,85.55,68,4,9.35,PG,1595299590
381,sisimiut,66.94,-53.67,50.25,78,100,4.65,GL,1595299590
382,acajutla,13.59,-89.83,73.99,99,100,3.02,SV,1595299591
383,nkhotakota,-12.93,34.3,65.23,72,12,11.14,MW,1595299591
384,ouango,4.31,22.56,67.35,94,31,1.81,CF,1595299591
385,tsiroanomandidy,-18.77,46.03,48.6,80,27,1.92,MG,1595299591
386,biograd na moru,43.94,15.45,66.99,87,0,5.08,HR,1595299390
387,ahuimanu,21.44,-157.84,84.2,58,75,10.29,US,1595299547
388,mankachar,25.53,89.87,78.3,94,100,8.66,IN,1595299591
389,landau,49.21,8.11,64.99,66,21,1.01,DE,1595299591
391,carsamba,41.2,36.72,75.2,73,75,17.22,TR,1595299591
392,san borja,-14.82,-66.85,73.85,69,52,0.81,BO,1595299591
393,peleduy,59.63,112.74,64.65,60,100,9.55,RU,1595299591
394,chumikan,54.72,135.31,51.78,96,100,25.17,RU,1595299592
395,hobyo,5.35,48.53,77.23,71,90,21.54,SO,1595299592
396,tilichiki,60.47,166.1,58.75,61,31,8.19,RU,1595299592
397,antakya,36.21,36.16,78.8,69,0,8.05,TR,1595299592
398,kuznechnoye,61.12,29.87,62.01,90,99,1.05,RU,1595299592
399,guerrero negro,27.98,-114.06,70.66,69,0,12.53,MX,1595299565
400,buala,-8.14,159.59,82.02,80,61,11.01,SB,1595299592
401,beringovskiy,63.05,179.32,46.99,75,95,10.27,RU,1595299432
402,salalah,17.02,54.09,78.8,100,90,3.36,OM,1595299592
403,cacador,-26.78,-51.02,53.53,86,0,2.62,BR,1595299593
404,alberton,46.82,-64.07,69.93,85,10,12.97,CA,1595299593
405,lethem,3.38,-59.8,75.07,86,66,2.8,GY,1595299593
406,christchurch,-43.53,172.63,62.6,42,17,11.41,NZ,1595299320
407,salina,38.84,-97.61,86,62,90,16.11,US,1595299451
408,saint-augustin,51.23,-58.65,61.25,97,99,10.51,CA,1595299593
409,itoman,26.12,127.67,89.01,83,40,4.7,JP,1595299593
410,nantucket,41.28,-70.1,73,100,40,10.29,US,1595299593
411,juwana,-6.71,111.15,85.86,65,32,6.53,ID,1595299593
412,orsha,54.52,30.41,57.34,87,3,3.96,BY,1595299593
413,galati,45.45,28.05,64.4,88,0,14.99,RO,1595299593
415,shihezi,44.3,86.03,73.15,55,100,11.1,CN,1595299594
416,falkenberg,56.91,12.49,57,82,37,13.87,SE,1595299594
417,lexington,37.99,-84.48,78.01,94,1,5.82,US,1595299433
418,maryborough,-25.53,152.7,69.01,60,100,5.01,AU,1595299594
419,cabo san lucas,22.89,-109.91,93.2,35,5,14.99,MX,1595299594
420,chifeng,42.27,118.96,85.21,37,100,7.29,CN,1595299594
421,hagere selam,6.48,38.52,47.98,100,94,1.72,ET,1595299594
422,olesno,50.88,18.42,62.01,100,30,9.95,PL,1595299594
423,hohhot,40.81,111.65,78.8,47,10,6.71,CN,1595299594
425,bereda,43.27,-7.54,61,97,82,10,ES,1595299595
426,lorengau,-2.02,147.27,86.16,63,59,8.57,PG,1595299595
427,sabang,5.89,95.32,83.68,70,100,4.16,ID,1595299595
428,lander,42.83,-108.73,78.8,26,1,12.75,US,1595299595
429,antalaha,-14.9,50.28,65.57,85,9,9.1,MG,1595299595
430,bhan,26.56,67.72,92.28,55,63,16.69,PK,1595299595
431,turukhansk,65.82,87.98,51.33,82,100,9.33,RU,1595299595
432,kieta,-6.22,155.63,84.24,74,6,8.81,PG,1595299595
433,utena,55.5,25.6,59.5,94,99,8.88,LT,1595299596
434,broken hill,-31.95,141.43,53.6,54,93,14.99,AU,1595299596
435,cayenne,4.93,-52.33,75.2,100,60,5.82,GF,1595299596
436,atbasar,51.8,68.33,74.44,61,100,7.83,KZ,1595299596
437,faya,18.39,42.45,66.2,77,100,4.5,SA,1595299596
438,cherskiy,68.75,161.3,76.93,28,100,5.41,RU,1595299596
439,sao felix do xingu,-6.64,-51.99,70.86,64,94,2.15,BR,1595299596
440,ust-barguzin,53.45,108.98,60.04,53,35,3.04,RU,1595299596
441,kapoeta,4.77,33.59,71.22,79,34,3.76,SS,1595299596
442,rabo de peixe,37.8,-25.58,66.2,88,75,9.17,PT,1595299323
443,chokwe,-24.53,32.98,55.65,92,0,2.62,MZ,1595299596
444,seoul,37.57,126.98,80.6,65,75,2.66,KR,1595299382
445,reitz,-27.8,28.43,37.15,59,0,4.72,ZA,1595299597
446,kamaishi,39.27,141.88,77,78,75,6.93,JP,1595299597
447,vernon,50.26,-119.27,82.4,37,1,16.11,CA,1595299597
448,svetlogorsk,52.63,29.73,59.13,89,0,5.37,BY,1595299597
449,san ignacio,17.16,-89.07,80.01,78,30,2.8,BZ,1595299597
450,kattivakkam,13.22,80.32,86,79,40,5.82,IN,1595299597
451,la ronge,55.1,-105.28,64.4,77,75,2.24,CA,1595299597
452,togur,58.36,82.83,59.11,85,96,11.7,RU,1595299597
453,bend,44.06,-121.32,88,22,0,3,US,1595299331
454,nakapiripirit,1.92,34.78,62.6,87,94,1.12,UG,1595299598
455,santa ines,-3.67,-45.38,73.63,78,0,0.81,BR,1595299598
456,syriam,16.77,96.24,82.4,83,90,4.7,MM,1595299598
457,teknaf,20.86,92.31,82.45,81,100,7.72,BD,1595299598
458,qurayyat,31.33,37.34,78.8,54,0,18.34,SA,1595299598
459,inhambane,-23.86,35.38,67.03,66,100,5.28,MZ,1595299598
460,caconda,-13.73,15.07,44.28,63,0,3.2,AO,1595299598
461,tokonou,9.65,-9.78,68.77,100,100,5.7,GN,1595299598
462,kholmogory,64.22,41.66,60.8,77,0,4.47,RU,1595299598
463,belyy yar,53.6,91.39,71.6,53,3,2.24,RU,1595299598
464,nicoya,10.15,-85.45,76.26,89,100,1.97,CR,1595299599
465,chokurdakh,70.63,147.92,82.44,33,74,14.9,RU,1595299599
466,dunedin,-45.87,170.5,60.01,46,65,15.99,NZ,1595299599
467,caluquembe,-13.78,14.68,45.57,58,0,2.28,AO,1595299599
468,isfana,39.84,69.53,82.4,39,20,8.95,KG,1595299599
469,ayacucho,-13.16,-74.22,52.88,53,0,2.24,PE,1595299599
470,pacific grove,36.62,-121.92,61,82,90,8.05,US,1595299599
471,sebinkarahisar,40.29,38.42,62.62,83,22,3.11,TR,1595299599
473,teya,60.38,92.63,54.01,90,100,4.83,RU,1595299599
475,okhotsk,59.38,143.3,60.85,73,26,6.98,RU,1595299600
477,guaratinga,-16.57,-39.57,75.2,73,40,9.17,BR,1595299389
478,port lincoln,-34.73,135.87,54.68,69,89,7.27,AU,1595299600
479,foz,43.57,-7.25,64,92,94,1.01,ES,1595299600
480,batemans bay,-35.72,150.18,61,46,0,1.01,AU,1595299600
481,rundu,-17.93,19.77,46.24,56,0,5.12,NA,1595299600
482,bulawayo,-20.15,28.58,45.27,94,0,7.63,ZW,1595299600
483,aksu,41.12,80.26,76.68,41,26,3.8,CN,1595299600
484,yayva,59.33,57.26,60.01,65,100,5.01,RU,1595299600
485,kafanchan,9.58,8.3,67.89,99,100,1.92,NG,1595299601
486,coahuayana,18.73,-103.68,78.8,78,40,6.93,MX,1595299601
487,moranbah,-22,148.05,68.61,38,100,14.18,AU,1595299601
489,vao,-22.67,167.48,68.76,66,90,13.98,NC,1595299601
490,newberry,34.27,-81.62,77,94,1,3.36,US,1595299601
491,petropavlovsk-kamchatskiy,53.05,158.65,60.8,77,20,8.95,RU,1595299404
492,ornskoldsvik,63.29,18.72,57.2,100,100,6.93,SE,1595299601
493,chuzhou,32.32,118.3,77.25,88,100,4.5,CN,1595299601
494,nome,64.5,-165.41,55.99,81,90,12.75,US,1595299601
495,sertania,-8.07,-37.26,61.29,92,80,6.24,BR,1595299601
496,kahului,20.89,-156.47,87.8,52,20,24.16,US,1595299344
497,partizansk,43.13,133.13,83.08,47,73,10.11,RU,1595299602
498,yarada,17.65,83.27,84.2,83,40,8.05,IN,1595299602
499,talcahuano,-36.72,-73.12,48.2,93,90,6.93,CL,1595299579
500,borger,52.92,6.79,52,87,5,1.01,NL,1595299602
501,maldonado,-34.67,-54.92,63,93,40,3.36,UY,1595299602
502,tefe,-3.35,-64.71,76.46,72,59,2.55,BR,1595299602
503,imbituba,-28.24,-48.67,66.2,93,1,8.05,BR,1595299602
504,dingle,11,122.67,83.14,80,42,4.63,PH,1595299602
505,beloha,-25.17,45.05,55.87,81,0,6.49,MG,1595299602
506,sorong,-0.88,131.25,83.55,73,68,4.61,ID,1595299602
507,ambagarh chauki,20.78,80.72,84.02,70,100,11.95,IN,1595299602
508,jian,27.12,114.98,88.84,69,100,6.82,CN,1595299603
509,tupik,54.43,119.93,53.96,91,100,5.44,RU,1595299603
510,aztec,36.82,-107.99,89.6,34,1,10.29,US,1595299603
511,kimbe,-5.55,150.14,90.25,54,19,0.63,PG,1595299603
512,grindavik,63.84,-22.43,46.4,81,20,2.24,IS,1595299603
513,marihatag,8.79,126.3,85.46,67,55,5.66,PH,1595299603
514,sept-iles,50.2,-66.38,66.99,59,20,13.87,CA,1595299467
515,matagami,49.75,-77.63,53.6,93,1,4.32,CA,1595299603
518,the pas,53.83,-101.25,71.6,53,1,4.7,CA,1595299603
519,qingdao,36.1,120.37,86,54,100,4.47,CN,1595299603
520,bosaso,11.28,49.18,88.72,40,0,24.07,SO,1595299603
521,neiafu,-18.65,-173.98,78.8,88,75,4.7,TO,1595299604
522,bell ville,-32.63,-62.69,61.77,69,100,8.63,AR,1595299604
523,shingu,33.73,135.98,82.4,83,75,8.05,JP,1595299604
524,mezen,65.85,44.24,63.7,69,0,4.63,RU,1595299604
525,chapleau,47.84,-83.4,54.81,87,94,4.32,CA,1595299604
526,kiama,-34.68,150.87,63,50,7,8.99,AU,1595299604
527,constantine,36.37,6.61,69.8,60,0,1.12,DZ,1595299604
528,severodvinsk,64.56,39.83,60.8,77,0,4.47,RU,1595299604
529,severo-kurilsk,50.68,156.12,54.34,78,46,1.21,RU,1595299605
530,leh,34.17,77.58,54.57,43,100,5.97,IN,1595299605
533,magadan,59.57,150.8,64.15,59,4,6.64,RU,1595299605
534,zabaykalsk,49.63,117.32,69.3,40,47,14.52,RU,1595299605
535,uyutne,45.2,33.3,69.1,89,31,10.85,UA,1595299605
536,ankang,32.68,109.02,71.47,90,100,2.64,CN,1595299605
537,axim,4.87,-2.24,75.04,92,100,5.37,GH,1595299605
538,ust-maya,60.42,134.53,74.21,46,92,17.07,RU,1595299605
539,mucuri,-18.09,-39.55,71.78,84,15,9.53,BR,1595299606
540,katsuura,35.13,140.3,84,88,75,5.82,JP,1595299606
541,ponta delgada,37.73,-25.67,66.2,88,75,9.17,PT,1595299441
542,sierra vista,31.55,-110.3,87.8,18,1,10.29,US,1595299446
543,asosa,10.07,34.53,59,100,68,2.26,ET,1595299606
544,telimele,10.92,-13.33,70,100,100,1.39,GN,1595299606
545,ruidoso,33.33,-105.67,66.2,55,1,6.93,US,1595299606
546,port-gentil,-0.72,8.78,74.37,82,100,10.76,GA,1595299606
547,urdoma,61.75,48.54,59.68,75,85,6.64,RU,1595299606
548,tiarei,-17.53,-149.33,82.4,65,20,5.82,PF,1595299606
549,whitley bay,55.04,-1.45,51.01,81,67,12.75,GB,1595299525
550,codrington,-38.27,141.97,54.64,72,56,10.6,AU,1595299607
551,rodrigues alves,-7.74,-72.65,71.92,94,23,1.99,BR,1595299607
552,tchollire,8.4,14.17,68.61,89,98,3.02,CM,1595299607
553,kyra,49.58,111.98,68.88,46,88,4.12,RU,1595299607
554,quelimane,-17.88,36.89,59,93,1,3.36,MZ,1595299607
555,sambava,-14.27,50.17,67.69,78,0,13.02,MG,1595299607
556,ketchikan,55.34,-131.65,59,100,90,8.05,US,1595299607
557,karatau,43.17,70.47,88.65,17,2,11.77,KZ,1595299607
558,navolato,24.77,-107.69,86,71,89,3,MX,1595299563
559,necochea,-38.55,-58.74,51.01,94,100,11.01,AR,1595299607
560,vostok,46.49,135.88,61.72,100,100,1.86,RU,1595299608
561,iranshahr,27.2,60.68,86,15,0,6.8,IR,1595299608
562,sabha,27.04,14.43,78.78,37,0,14.99,LY,1595299608
563,cap-aux-meules,47.38,-61.86,69.8,88,75,12.75,CA,1595299608
564,hokitika,-42.72,170.97,53.46,79,99,13.42,NZ,1595299608
565,waingapu,-9.66,120.26,83.21,59,18,12.44,ID,1595299608
566,jacqueville,5.21,-4.41,75.2,100,40,5.82,CI,1595299608
567,csomor,47.55,19.23,63,93,0,3.09,HU,1595299608
568,salinopolis,-0.61,-47.36,77.61,83,8,9.35,BR,1595299608
569,port hawkesbury,45.62,-61.35,71.6,88,90,12.75,CA,1595299608
570,pingliang,35.54,106.69,70,66,97,14.12,CN,1595299608
571,severnyy-kospashskiy,59.09,57.8,60.01,65,100,5.01,RU,1595299608
572,lota,-37.08,-73.17,48.2,93,90,6.93,CL,1595299609
573,cabra,37.47,-4.44,80.6,47,58,3.36,ES,1595299609
574,soldotna,60.49,-151.06,75,56,1,13.87,US,1595299609
575,mehamn,71.04,27.85,58.75,84,95,7.56,NO,1595299609
576,hattiesburg,31.33,-89.29,82.4,78,1,1.57,US,1595299609
577,zonguldak,41.25,31.83,60.49,93,0,3.22,TR,1595299609
578,malpe,13.35,74.72,77,94,75,4.7,IN,1595299609
579,moelv,60.93,10.7,43,87,75,1.01,NO,1595299609
580,emerald,-23.53,148.17,60.8,36,100,13.87,AU,1595299609
581,krasnoborsk,61.56,45.93,61.5,75,97,6.2,RU,1595299609
582,cartagena,10.4,-75.51,81.07,84,95,5.86,CO,1595299476
583,victor harbor,-35.57,138.62,55,82,91,4.36,AU,1595299609
584,fortuna,40.6,-124.16,57.99,100,90,6.93,US,1595299609
585,balta,47.94,29.62,59.76,86,0,6.2,UA,1595299610
586,barra do garcas,-15.89,-52.26,65.59,53,0,1.86,BR,1595299520
587,orapa,-21.28,25.37,46.76,85,0,7.16,BW,1595299610
589,kananga,-5.9,22.42,63.37,37,0,3.76,CD,1595299610
590,kathmandu,27.72,85.32,68,100,90,3.29,NP,1595299610
591,abu samrah,35.3,37.18,71.6,58,0,10.07,SY,1595299610
592,nuuk,64.18,-51.72,53.6,81,100,6.93,GL,1595299312
593,harlingen,26.19,-97.7,84,74,1,9.17,US,1595299610
595,ossora,59.24,163.07,56.88,64,0,12.86,RU,1595299610
597,kalemie,-5.95,29.19,70.11,64,67,0.51,CD,1595299610
598,harfleur,49.51,0.2,55.4,82,4,5.82,FR,1595299601
599,labuhan,-6.88,112.21,84.22,72,31,8.08,ID,1595299611
600,thinadhoo,0.53,72.93,84.07,75,98,13.44,MV,1595299611
601,guasdualito,7.24,-70.73,72.18,95,100,2.17,VE,1595299611
602,kabansk,52.05,106.65,66.2,42,20,4.47,RU,1595299611
603,orlik,52.52,99.83,71.2,34,6,8.77,RU,1595299611
604,vannes,47.83,-2.5,57.2,76,0,13.87,FR,1595299611
605,shahrud,36.42,54.98,78.24,18,0,2.28,IR,1595299611
607,taltal,-25.4,-70.48,57.63,72,100,1.77,CL,1595299611
608,buin,-33.73,-70.75,51.8,81,40,5.82,CL,1595299611
609,eha amufu,6.66,7.76,72.59,96,100,3.8,NG,1595299611
610,livramento,-3.03,-60.18,82.4,88,100,2.46,BR,1595299612
611,wanaka,-44.7,169.15,44.74,81,89,5.86,NZ,1595299612
612,carthage,36.86,10.33,69.8,64,0,4.5,TN,1595299612
613,vardo,70.37,31.11,57.2,100,75,6.93,NO,1595299612
614,losevo,50.68,40.05,62.06,80,0,3.87,RU,1595299612
615,merrill,45.18,-89.68,66.2,87,40,3.58,US,1595299612
